[
  {
    "locality": "Ярославль",
    "district": "Кировский район",
    "admin_area": "Центр",
    "title": "Площадь Труда",
    "lat": 57.62667,
    "lon": 39.86528,
    "source": "manual"
  },
  {
    "locality": "Ярославль",
    "district": "Кировский район",
    "admin_area": "Центр",
    "title": "Проспект Толбухина",
    "lat": 57.6272,
    "lon": 39.864,
    "source": "manual"
  },
  {
    "locality": "Ярославль",
    "district": "Кировский район",
    "admin_area": "Центр",
    "title": "Площадь Волкова",
    "lat": 57.62594,
    "lon": 39.8824,
    "source": "manual"
  },
  {
    "locality": "Ярославль",
    "district": "Кировский район",
    "admin_area": "Центр",
    "title": "Знаменская башня",
    "lat": 57.62546,
    "lon": 39.885,
    "source": "manual"
  },
  {
    "locality": "Ярославль",
    "district": "Дзержинский район",
    "admin_area": "Брагино",
    "title": "Кинотеатр «Победа» (ТЦ «Космос»)",
    "lat": 57.67917,
    "lon": 39.79083,
    "source": "manual"
  },
  {
    "locality": "Ярославль",
    "district": "Заволжский район",
    "admin_area": "Заволжский жилой район",
    "title": "Кинотеатр «Аврора»",
    "lat": 57.6978,
    "lon": 39.8243,
    "source": "manual"
  },
  {
    "locality": "Ярославль",
    "district": "Заволжский район",
    "admin_area": "Шевелюха",
    "title": "Зоопарк",
    "lat": 57.67676,
    "lon": 39.89743,
    "source": "manual"
  },
  {
    "locality": "Ярославль",
    "district": "Красноперекопский район",
    "admin_area": "Донская слобода",
    "title": "Московский вокзал",
    "lat": 57.60058,
    "lon": 39.87241,
    "source": "manual"
  },
  {
    "locality": "Ярославль",
    "district": "Красноперекопский район",
    "admin_area": "Нефтестрой",
    "title": "Арена-2000",
    "lat": 57.58928,
    "lon": 39.84877,
    "source": "manual"
  },
  {
    "locality": "Ярославль",
    "district": "Красноперекопский район",
    "admin_area": "Нефтестрой",
    "title": "Технический университет (ЯГТУ)",
    "lat": 57.5888,
    "lon": 39.8415,
    "source": "manual"
  },
  {
    "locality": "Ярославль",
    "district": "Красноперекопский район",
    "admin_area": "Новые Полянки",
    "title": "Улица Майорова",
    "lat": 57.5803,
    "lon": 39.8417,
    "source": "manual"
  },
  {
    "locality": "Ярославль",
    "district": "Ленинский район",
    "admin_area": "Весь Ленинский район",
    "title": "Юбилейная площадь",
    "lat": 57.63407,
    "lon": 39.85921,
    "source": "manual"
  },
  {
    "locality": "Ярославль",
    "district": "Ленинский район",
    "admin_area": "Весь Ленинский район",
    "title": "Областная онкологическая больница (Загородный сад)",
    "lat": 57.639966,
    "lon": 39.856873,
    "source": "manual"
  },
  {
    "locality": "Ярославль",
    "district": "Ленинский район",
    "admin_area": "Весь Ленинский район",
    "title": "Рынок «Пятёрка»",
    "lat": 57.638,
    "lon": 39.8345,
    "source": "manual"
  },
  {
    "locality": "Ярославль",
    "district": "Фрунзенский район",
    "admin_area": "Сокол / Сокол-2",
    "title": "ТЦ «Аксон»",
    "lat": 57.59211,
    "lon": 39.89607,
    "source": "manual"
  },
  {
    "locality": "Ярославль",
    "district": "Фрунзенский район",
    "admin_area": "Сокол / Сокол-2",
    "title": "Улица Чернопрудная",
    "lat": 57.593,
    "lon": 39.899,
    "source": "manual"
  },
  {
    "locality": "Ярославль",
    "district": "Фрунзенский район",
    "admin_area": "Дядьково",
    "title": "Аквапарк",
    "lat": 57.57154,
    "lon": 39.91681,
    "source": "manual"
  },
  {
    "locality": "Ярославль",
    "district": "Кировский район",
    "admin_area": "Центр",
    "title": "Улица Володарского",
    "lat": 57.6160217,
    "lon": 39.8630632,
    "source": "photon"
  },
  {
    "locality": "Ярославль",
    "district": "Кировский район",
    "admin_area": "Центр",
    "title": "Богоявленская площадь",
    "lat": 57.6225999,
    "lon": 39.8877709,
    "source": "photon"
  },
  {
    "locality": "Ярославль",
    "district": "Кировский район",
    "admin_area": "Центр",
    "title": "Торговый переулок",
    "lat": 57.6249882,
    "lon": 39.8856422,
    "source": "photon"
  },
  {
    "locality": "Ярославль",
    "district": "Кировский район",
    "admin_area": "Центр",
    "title": "Красная площадь",
    "lat": 57.6319072,
    "lon": 39.8877186,
    "source": "photon"
  },
  {
    "locality": "Ярославль",
    "district": "Кировский район",
    "admin_area": "Центр",
    "title": "Посёлок Кармановский",
    "lat": 57.6413798,
    "lon": 39.786121,
    "source": "photon"
  },
  {
    "locality": "Ярославль",
    "district": "Фрунзенский район",
    "admin_area": "Великий",
    "title": "Посёлок Великий",
    "lat": 57.5435396,
    "lon": 39.9590723,
    "source": "photon"
  },
  {
    "locality": "Ярославль",
    "district": "Фрунзенский район",
    "admin_area": "Дядьково",
    "title": "Улица Ильинская",
    "lat": 57.5806703,
    "lon": 39.9240912,
    "source": "photon"
  },
  {
    "locality": "Ярославль",
    "district": "Фрунзенский район",
    "admin_area": "Дядьково",
    "title": "Бульварная улица",
    "lat": 57.6358547,
    "lon": 39.7881404,
    "source": "photon"
  },
  {
    "locality": "Ярославль",
    "district": "Фрунзенский район",
    "admin_area": "Коровники",
    "title": "Коровники",
    "lat": 57.6101492,
    "lon": 39.9035469,
    "source": "photon"
  },
  {
    "locality": "Ярославль",
    "district": "Фрунзенский район",
    "admin_area": "Коровники",
    "title": "Мельничная улица",
    "lat": 57.6100229,
    "lon": 39.8931472,
    "source": "photon"
  },
  {
    "locality": "Ярославль",
    "district": "Фрунзенский район",
    "admin_area": "Кресты",
    "title": "Кресты",
    "lat": 57.5787592,
    "lon": 39.8491603,
    "source": "photon"
  },
  {
    "locality": "Ярославль",
    "district": "Фрунзенский район",
    "admin_area": "Кресты",
    "title": "Московский проспект",
    "lat": 57.6074128,
    "lon": 39.8761762,
    "source": "photon"
  },
  {
    "locality": "Ярославль",
    "district": "Фрунзенский район",
    "admin_area": "Кресты",
    "title": "Слепнёва",
    "lat": 57.579638,
    "lon": 39.880272,
    "source": "photon"
  },
  {
    "locality": "Ярославль",
    "district": "Фрунзенский район",
    "admin_area": "Куйбышевский",
    "title": "Куйбышевский посёлок",
    "lat": 57.5435396,
    "lon": 39.9590723,
    "source": "photon"
  },
  {
    "locality": "Ярославль",
    "district": "Фрунзенский район",
    "admin_area": "Липовая Гора",
    "title": "Радиозавод",
    "lat": 57.5571691,
    "lon": 39.949729,
    "source": "photon"
  },
  {
    "locality": "Ярославль",
    "district": "Фрунзенский район",
    "admin_area": "Липовая Гора",
    "title": "Улица Звёздная",
    "lat": 57.5620159,
    "lon": 39.9182102,
    "source": "photon"
  },
  {
    "locality": "Ярославль",
    "district": "Фрунзенский район",
    "admin_area": "Липовая Гора",
    "title": "Пивзавод",
    "lat": 57.5676176,
    "lon": 39.8959733,
    "source": "photon"
  },
  {
    "locality": "Ярославль",
    "district": "Фрунзенский район",
    "admin_area": "Малково",
    "title": "Малково",
    "lat": 57.6263877,
    "lon": 39.8933705,
    "source": "photon"
  },
  {
    "locality": "Ярославль",
    "district": "Фрунзенский район",
    "admin_area": "Мирный",
    "title": "Посёлок Мирный",
    "lat": 57.590288,
    "lon": 39.9016688,
    "source": "photon"
  },
  {
    "locality": "Ярославль",
    "district": "Фрунзенский район",
    "admin_area": "Нефтебаза",
    "title": "Нефтебаза",
    "lat": 57.5669704,
    "lon": 39.9364027,
    "source": "photon"
  },
  {
    "locality": "Ярославль",
    "district": "Фрунзенский район",
    "admin_area": "Новосёлки",
    "title": "Индустриальный парк «Новосёлки»",
    "lat": 57.5486678,
    "lon": 39.909837,
    "source": "photon"
  },
  {
    "locality": "Ярославль",
    "district": "Фрунзенский район",
    "admin_area": "Октябрьский",
    "title": "Октябрьский посёлок",
    "lat": 57.5547449,
    "lon": 39.9580415,
    "source": "photon"
  },
  {
    "locality": "Ярославль",
    "district": "Фрунзенский район",
    "admin_area": "Прибрежный",
    "title": "Прибрежный микрорайон (в р-не Фрунзе)",
    "lat": 57.9496099,
    "lon": 38.3912758,
    "source": "photon"
  },
  {
    "locality": "Ярославль",
    "district": "Фрунзенский район",
    "admin_area": "Сокол / Сокол-2",
    "title": "Проспект Фрунзе",
    "lat": 57.5489135,
    "lon": 39.9558926,
    "source": "photon"
  },
  {
    "locality": "Ярославль",
    "district": "Фрунзенский район",
    "admin_area": "Сокол / Сокол-2",
    "title": "Микрорайон Сокол",
    "lat": 57.5952836,
    "lon": 39.9043615,
    "source": "photon"
  },
  {
    "locality": "Ярославль",
    "district": "Фрунзенский район",
    "admin_area": "Суворовский",
    "title": "Посёлок Суворовский",
    "lat": 57.5900823,
    "lon": 39.9157795,
    "source": "photon"
  },
  {
    "locality": "Ярославль",
    "district": "Фрунзенский район",
    "admin_area": "Суздалка",
    "title": "Улица Суздальская",
    "lat": 57.5692386,
    "lon": 39.8723891,
    "source": "photon"
  },
  {
    "locality": "Ярославль",
    "district": "Фрунзенский район",
    "admin_area": "Суздалка",
    "title": "Больница №8",
    "lat": 57.5887712,
    "lon": 39.8766028,
    "source": "photon"
  },
  {
    "locality": "Ярославль",
    "district": "Фрунзенский район",
    "admin_area": "Суздалка",
    "title": "Доронина",
    "lat": 57.5759157,
    "lon": 39.8678336,
    "source": "photon"
  },
  {
    "locality": "Ярославль",
    "district": "Фрунзенский район",
    "admin_area": "Суздалка",
    "title": "Слепнёва",
    "lat": 57.579638,
    "lon": 39.880272,
    "source": "photon"
  },
  {
    "locality": "Ярославль",
    "district": "Фрунзенский район",
    "admin_area": "Тропино",
    "title": "Тропино",
    "lat": 57.6263877,
    "lon": 39.8933705,
    "source": "photon"
  },
  {
    "locality": "Ярославль",
    "district": "Фрунзенский район",
    "admin_area": "Тугова Гора",
    "title": "Тугова гора",
    "lat": 57.6039732,
    "lon": 39.8928512,
    "source": "photon"
  },
  {
    "locality": "Ярославль",
    "district": "Фрунзенский район",
    "admin_area": "Тугова Гора",
    "title": "Улица Бахарева",
    "lat": 57.5302136,
    "lon": 38.3413359,
    "source": "photon"
  },
  {
    "locality": "Ярославль",
    "district": "Фрунзенский район",
    "admin_area": "Ямская Слобода",
    "title": "Ямская",
    "lat": 57.6066544,
    "lon": 39.8815285,
    "source": "photon"
  },
  {
    "locality": "Ярославль",
    "district": "Фрунзенский район",
    "admin_area": "Ямская Слобода",
    "title": "Выемка (со стороны Фрунзенского района)",
    "lat": 59.8308772,
    "lon": 30.3899108,
    "source": "photon"
  },
  {
    "locality": "Ярославль",
    "district": "Заволжский район",
    "admin_area": "пос. Агрокомбината",
    "title": "Агрокомбинат (Заволжье)",
    "lat": 57.6616598,
    "lon": 39.9329702,
    "source": "photon"
  },
  {
    "locality": "Ярославль",
    "district": "Заволжский район",
    "admin_area": "Бакуниха",
    "title": "Бакуниха",
    "lat": 57.7635465,
    "lon": 39.798998,
    "source": "photon"
  },
  {
    "locality": "Ярославль",
    "district": "Заволжский район",
    "admin_area": "Борки",
    "title": "Борки",
    "lat": 57.6665254,
    "lon": 39.882708,
    "source": "photon"
  },
  {
    "locality": "Ярославль",
    "district": "Заволжский район",
    "admin_area": "Вакарево",
    "title": "Вакарево",
    "lat": 57.5807967,
    "lon": 39.9519092,
    "source": "photon"
  },
  {
    "locality": "Ярославль",
    "district": "Заволжский район",
    "admin_area": "Воздвиженье",
    "title": "Воздвиженье",
    "lat": 59.4876249,
    "lon": 39.5936262,
    "source": "photon"
  },
  {
    "locality": "Ярославль",
    "district": "Заволжский район",
    "admin_area": "Волгострой",
    "title": "Посёлок Волгострой",
    "lat": 57.5435396,
    "lon": 39.9590723,
    "source": "photon"
  },
  {
    "locality": "Ярославль",
    "district": "Заволжский район",
    "admin_area": "Гагаринская Слобода",
    "title": "Гагаринская слобода",
    "lat": 56.5901354,
    "lon": 38.5962413,
    "source": "photon"
  },
  {
    "locality": "Ярославль",
    "district": "Заволжский район",
    "admin_area": "Долматово",
    "title": "Долматово",
    "lat": 57.6753057,
    "lon": 39.87455,
    "source": "photon"
  },
  {
    "locality": "Ярославль",
    "district": "Заволжский район",
    "admin_area": "Дудкино",
    "title": "Дудкино",
    "lat": 57.6263877,
    "lon": 39.8933705,
    "source": "photon"
  },
  {
    "locality": "Ярославль",
    "district": "Заволжский район",
    "admin_area": "Жерепково",
    "title": "Жерепково",
    "lat": 57.6263877,
    "lon": 39.8933705,
    "source": "photon"
  },
  {
    "locality": "Ярославль",
    "district": "Заволжский район",
    "admin_area": "пос. Завода 50",
    "title": "Завод №50",
    "lat": 57.6612432,
    "lon": 39.9274156,
    "source": "photon"
  },
  {
    "locality": "Ярославль",
    "district": "Заволжский район",
    "admin_area": "пос. Завода 50",
    "title": "Машприбор",
    "lat": 57.61493,
    "lon": 39.9641415,
    "source": "photon"
  },
  {
    "locality": "Ярославль",
    "district": "Заволжский район",
    "admin_area": "Заволжский жилой район",
    "title": "Проспект Машиностроителей",
    "lat": 57.6370949,
    "lon": 39.9657668,
    "source": "photon"
  },
  {
    "locality": "Ярославль",
    "district": "Заволжский район",
    "admin_area": "Заволжский жилой район",
    "title": "Улица Сахарова",
    "lat": 57.6371322,
    "lon": 39.9578526,
    "source": "photon"
  },
  {
    "locality": "Ярославль",
    "district": "Заволжский район",
    "admin_area": "Заостровка",
    "title": "Заостровка",
    "lat": 57.6514491,
    "lon": 39.8938375,
    "source": "photon"
  },
  {
    "locality": "Ярославль",
    "district": "Заволжский район",
    "admin_area": "Косая Гора",
    "title": "Косая Гора",
    "lat": 57.6822574,
    "lon": 39.8548785,
    "source": "photon"
  },
  {
    "locality": "Ярославль",
    "district": "Заволжский район",
    "admin_area": "Куксенки",
    "title": "Куксенки",
    "lat": 57.6810084,
    "lon": 39.8719441,
    "source": "photon"
  },
  {
    "locality": "Ярославль",
    "district": "Заволжский район",
    "admin_area": "Ляпино",
    "title": "Ляпино",
    "lat": 57.6263877,
    "lon": 39.8933705,
    "source": "photon"
  },
  {
    "locality": "Ярославль",
    "district": "Заволжский район",
    "admin_area": "Ляпино",
    "title": "Школа №50",
    "lat": 57.6445057,
    "lon": 39.9177056,
    "source": "photon"
  },
  {
    "locality": "Ярославль",
    "district": "Заволжский район",
    "admin_area": "пос. Маяковского",
    "title": "Посёлок Маяковского",
    "lat": 57.6322899,
    "lon": 39.9506049,
    "source": "photon"
  },
  {
    "locality": "Ярославль",
    "district": "Заволжский район",
    "admin_area": "пос. Маяковского",
    "title": "Улица Университетская",
    "lat": 57.6238385,
    "lon": 39.9332842,
    "source": "photon"
  },
  {
    "locality": "Ярославль",
    "district": "Заволжский район",
    "admin_area": "Медведево",
    "title": "Медведево",
    "lat": 57.6263877,
    "lon": 39.8933705,
    "source": "photon"
  },
  {
    "locality": "Ярославль",
    "district": "Заволжский район",
    "admin_area": "Мологино",
    "title": "Мологино",
    "lat": 57.948406,
    "lon": 38.866844,
    "source": "photon"
  },
  {
    "locality": "Ярославль",
    "district": "Заволжский район",
    "admin_area": "Насыриха",
    "title": "Насыриха",
    "lat": 57.6263877,
    "lon": 39.8933705,
    "source": "photon"
  },
  {
    "locality": "Ярославль",
    "district": "Заволжский район",
    "admin_area": "Нижний пос.",
    "title": "Нижний посёлок",
    "lat": 57.6091741,
    "lon": 39.980375,
    "source": "photon"
  },
  {
    "locality": "Ярославль",
    "district": "Заволжский район",
    "admin_area": "Нижний пос.",
    "title": "Улица Розы Люксембург",
    "lat": 57.6373183,
    "lon": 39.8346704,
    "source": "photon"
  },
  {
    "locality": "Ярославль",
    "district": "Заволжский район",
    "admin_area": "Очапки",
    "title": "Очапки",
    "lat": 57.7696367,
    "lon": 39.7899669,
    "source": "photon"
  },
  {
    "locality": "Ярославль",
    "district": "Заволжский район",
    "admin_area": "Парково",
    "title": "Парково",
    "lat": 57.603774,
    "lon": 39.9340833,
    "source": "photon"
  },
  {
    "locality": "Ярославль",
    "district": "Заволжский район",
    "admin_area": "Парково",
    "title": "Озеро",
    "lat": 57.6263877,
    "lon": 39.8933705,
    "source": "photon"
  },
  {
    "locality": "Ярославль",
    "district": "Заволжский район",
    "admin_area": "Першино",
    "title": "Першино",
    "lat": 57.6263877,
    "lon": 39.8933705,
    "source": "photon"
  },
  {
    "locality": "Ярославль",
    "district": "Заволжский район",
    "admin_area": "Резинотехника",
    "title": "Завод «Резинотехника»",
    "lat": 57.7334508,
    "lon": 39.8065292,
    "source": "photon"
  },
  {
    "locality": "Ярославль",
    "district": "Заволжский район",
    "admin_area": "Резинотехника",
    "title": "Улица Спартаковская",
    "lat": 57.7324196,
    "lon": 39.8077323,
    "source": "photon"
  },
  {
    "locality": "Ярославль",
    "district": "Заволжский район",
    "admin_area": "Резинотехника",
    "title": "Улица Панфилова",
    "lat": 57.7202078,
    "lon": 39.8331038,
    "source": "photon"
  },
  {
    "locality": "Ярославль",
    "district": "Заволжский район",
    "admin_area": "Рогово",
    "title": "Рогово",
    "lat": 57.6263877,
    "lon": 39.8933705,
    "source": "photon"
  },
  {
    "locality": "Ярославль",
    "district": "Заволжский район",
    "admin_area": "Сергейцево",
    "title": "Сергейцево",
    "lat": 57.7410278,
    "lon": 39.8255169,
    "source": "photon"
  },
  {
    "locality": "Ярославль",
    "district": "Заволжский район",
    "admin_area": "Смоленское",
    "title": "Смоленское",
    "lat": 57.6598751,
    "lon": 39.9004279,
    "source": "photon"
  },
  {
    "locality": "Ярославль",
    "district": "Заволжский район",
    "admin_area": "Средний пос.",
    "title": "Средний посёлок",
    "lat": 57.6064398,
    "lon": 39.9503716,
    "source": "photon"
  },
  {
    "locality": "Ярославль",
    "district": "Заволжский район",
    "admin_area": "Средний пос.",
    "title": "Клубная улица",
    "lat": 57.6089293,
    "lon": 39.9825135,
    "source": "photon"
  },
  {
    "locality": "Ярославль",
    "district": "Заволжский район",
    "admin_area": "Тверицы",
    "title": "Тверицы",
    "lat": 57.6301886,
    "lon": 39.9134112,
    "source": "photon"
  },
  {
    "locality": "Ярославль",
    "district": "Заволжский район",
    "admin_area": "Тверицы",
    "title": "Улица Стопани",
    "lat": 57.6177488,
    "lon": 39.9258195,
    "source": "photon"
  },
  {
    "locality": "Ярославль",
    "district": "Заволжский район",
    "admin_area": "Тверицы",
    "title": "Тверицкая набережная",
    "lat": 57.6231847,
    "lon": 39.9190407,
    "source": "photon"
  },
  {
    "locality": "Ярославль",
    "district": "Заволжский район",
    "admin_area": "Толга",
    "title": "Толгский монастырь",
    "lat": 57.7002583,
    "lon": 39.8312685,
    "source": "photon"
  },
  {
    "locality": "Ярославль",
    "district": "Заволжский район",
    "admin_area": "Толга",
    "title": "Посёлок Толга",
    "lat": 57.7022661,
    "lon": 39.8219821,
    "source": "photon"
  },
  {
    "locality": "Ярославль",
    "district": "Заволжский район",
    "admin_area": "Трофимково",
    "title": "Трофимково",
    "lat": 57.6916444,
    "lon": 39.8393878,
    "source": "photon"
  },
  {
    "locality": "Ярославль",
    "district": "Заволжский район",
    "admin_area": "Филино",
    "title": "Станция Филино",
    "lat": 57.6579409,
    "lon": 39.9283959,
    "source": "photon"
  },
  {
    "locality": "Ярославль",
    "district": "Заволжский район",
    "admin_area": "Филино",
    "title": "Улица Шевелюха (поворот)",
    "lat": 57.6653151,
    "lon": 39.9088356,
    "source": "photon"
  },
  {
    "locality": "Ярославль",
    "district": "Заволжский район",
    "admin_area": "Шевелюха",
    "title": "Улица Шевелюха",
    "lat": 57.6568638,
    "lon": 39.9094426,
    "source": "photon"
  },
  {
    "locality": "Ярославль",
    "district": "Заволжский район",
    "admin_area": "Яковлевское",
    "title": "Областная больница",
    "lat": 57.6780051,
    "lon": 39.818837,
    "source": "photon"
  },
  {
    "locality": "Ярославль",
    "district": "Заволжский район",
    "admin_area": "Яковлевское",
    "title": "Яковлевская",
    "lat": 57.6604398,
    "lon": 39.9554527,
    "source": "photon"
  },
  {
    "locality": "Ярославль",
    "district": "Красноперекопский район",
    "admin_area": "Донская слобода",
    "title": "Улица Ухтомского",
    "lat": 57.6209543,
    "lon": 39.8473486,
    "source": "photon"
  },
  {
    "locality": "Ярославль",
    "district": "Красноперекопский район",
    "admin_area": "Нефтестрой",
    "title": "Больница НПЗ",
    "lat": 57.5886735,
    "lon": 39.8449892,
    "source": "photon"
  },
  {
    "locality": "Ярославль",
    "district": "Красноперекопский район",
    "admin_area": "Нефтестрой",
    "title": "Институт",
    "lat": 57.637078,
    "lon": 39.858387,
    "source": "photon"
  },
  {
    "locality": "Ярославль",
    "district": "Красноперекопский район",
    "admin_area": "Новые Полянки",
    "title": "Новые Полянки",
    "lat": 57.5904272,
    "lon": 39.8343867,
    "source": "photon"
  },
  {
    "locality": "Ярославль",
    "district": "Красноперекопский район",
    "admin_area": "Починки",
    "title": "Починки",
    "lat": 57.6116636,
    "lon": 39.8140973,
    "source": "photon"
  },
  {
    "locality": "Ярославль",
    "district": "Красноперекопский район",
    "admin_area": "Починки",
    "title": "Улица Гагарина",
    "lat": 57.5765937,
    "lon": 39.8282223,
    "source": "photon"
  },
  {
    "locality": "Ярославль",
    "district": "Красноперекопский район",
    "admin_area": "Починки",
    "title": "База «Нефтестрой»",
    "lat": 57.582699,
    "lon": 39.844856,
    "source": "photon"
  },
  {
    "locality": "Ярославль",
    "district": "Красноперекопский район",
    "admin_area": "Толчково",
    "title": "Комсомольская площадь",
    "lat": 57.6083351,
    "lon": 39.8357346,
    "source": "photon"
  },
  {
    "locality": "Ярославль",
    "district": "Красноперекопский район",
    "admin_area": "Толчково",
    "title": "Выемка",
    "lat": 57.6054747,
    "lon": 39.8790968,
    "source": "photon"
  },
  {
    "locality": "Ярославль",
    "district": "Красноперекопский район",
    "admin_area": "Толчково",
    "title": "Улица Карабулина",
    "lat": 57.604417,
    "lon": 39.8617584,
    "source": "photon"
  },
  {
    "locality": "Ярославль",
    "district": "Красноперекопский район",
    "admin_area": "Посёлки (малые)",
    "title": "Улица Бутырская",
    "lat": 57.604305,
    "lon": 39.8453267,
    "source": "photon"
  },
  {
    "locality": "Ярославль",
    "district": "Красноперекопский район",
    "admin_area": "Посёлки (малые)",
    "title": "Забелицы",
    "lat": 57.5989495,
    "lon": 39.8249442,
    "source": "photon"
  },
  {
    "locality": "Ярославль",
    "district": "Красноперекопский район",
    "admin_area": "Посёлки (малые)",
    "title": "Новодуховская",
    "lat": 57.6007286,
    "lon": 39.8167942,
    "source": "photon"
  },
  {
    "locality": "Ярославль",
    "district": "Красноперекопский район",
    "admin_area": "Посёлки (малые)",
    "title": "Творогово (ул. 17-я Линия)",
    "lat": 57.6167948,
    "lon": 39.8079894,
    "source": "photon"
  },
  {
    "locality": "Ярославль",
    "district": "Красноперекопский район",
    "admin_area": "Посёлки (малые)",
    "title": "Силикатный завод",
    "lat": 57.5933379,
    "lon": 39.8528723,
    "source": "photon"
  },
  {
    "locality": "Ярославль",
    "district": "Ленинский район",
    "admin_area": "Весь Ленинский район",
    "title": "Проспект Ленина",
    "lat": 57.629675,
    "lon": 39.8501309,
    "source": "photon"
  },
  {
    "locality": "Ярославль",
    "district": "Ленинский район",
    "admin_area": "Весь Ленинский район",
    "title": "Улица Чкалова",
    "lat": 57.6371106,
    "lon": 39.810015,
    "source": "photon"
  },
  {
    "locality": "Ярославль",
    "district": "Ленинский район",
    "admin_area": "Весь Ленинский район",
    "title": "Улица Юности",
    "lat": 57.6381136,
    "lon": 39.8157931,
    "source": "photon"
  },
  {
    "locality": "Ярославль",
    "district": "Ленинский район",
    "admin_area": "Весь Ленинский район",
    "title": "Улица Белинского",
    "lat": 57.6424831,
    "lon": 39.8391274,
    "source": "manual"
  },
  {
    "locality": "Ярославль",
    "district": "Дзержинский район",
    "admin_area": "Брагино",
    "title": "Улица Урицкого",
    "lat": 57.678502,
    "lon": 39.7878123,
    "source": "photon"
  },
  {
    "locality": "Ярославль",
    "district": "Дзержинский район",
    "admin_area": "Брагино",
    "title": "Проспект Дзержинского",
    "lat": 57.6740476,
    "lon": 39.7730811,
    "source": "photon"
  },
  {
    "locality": "Ярославль",
    "district": "Дзержинский район",
    "admin_area": "2-е Брагино",
    "title": "Улица Панина",
    "lat": 57.6991406,
    "lon": 39.788301,
    "source": "photon"
  },
  {
    "locality": "Ярославль",
    "district": "Дзержинский район",
    "admin_area": "2-е Брагино",
    "title": "Улица Волгоградская",
    "lat": 57.6957441,
    "lon": 39.7668062,
    "source": "photon"
  },
  {
    "locality": "Ярославль",
    "district": "Дзержинский район",
    "admin_area": "2-е Брагино",
    "title": "15-й микрорайон",
    "lat": 57.7040434,
    "lon": 39.7636032,
    "source": "photon"
  },
  {
    "locality": "Ярославль",
    "district": "Дзержинский район",
    "admin_area": "Иваньково",
    "title": "Иваньково",
    "lat": 57.6849783,
    "lon": 39.8265152,
    "source": "photon"
  },
  {
    "locality": "Ярославль",
    "district": "Дзержинский район",
    "admin_area": "Мостострой",
    "title": "Мостоотряд",
    "lat": 57.6984087,
    "lon": 39.7962606,
    "source": "photon"
  },
  {
    "locality": "Ярославль",
    "district": "Дзержинский район",
    "admin_area": "Мостострой",
    "title": "Улица Старое Долматово",
    "lat": 57.6737138,
    "lon": 39.8691362,
    "source": "photon"
  },
  {
    "locality": "Ярославль",
    "district": "Дзержинский район",
    "admin_area": "Норское",
    "title": "Фабрика «Красный Перевал»",
    "lat": 57.7140917,
    "lon": 39.7740657,
    "source": "photon"
  },
  {
    "locality": "Ярославль",
    "district": "Дзержинский район",
    "admin_area": "Норское",
    "title": "Посёлок Норское",
    "lat": 57.729015,
    "lon": 39.774757,
    "source": "photon"
  },
  {
    "locality": "Ярославль",
    "district": "Дзержинский район",
    "admin_area": "Норское",
    "title": "Улица Керамическая",
    "lat": 57.7304593,
    "lon": 39.764957,
    "source": "photon"
  },
  {
    "locality": "Ярославль",
    "district": "Дзержинский район",
    "admin_area": "Осташинское",
    "title": "Осташинское кладбище",
    "lat": 57.6558389,
    "lon": 39.7853136,
    "source": "photon"
  },
  {
    "locality": "Ярославль",
    "district": "Дзержинский район",
    "admin_area": "Осташинское",
    "title": "Улица Осташинская",
    "lat": 57.6563716,
    "lon": 39.7815126,
    "source": "photon"
  },
  {
    "locality": "Ярославль",
    "district": "Дзержинский район",
    "admin_area": "Парижская Коммуна",
    "title": "Посёлок Парижская Коммуна",
    "lat": 57.6774923,
    "lon": 39.8335217,
    "source": "photon"
  },
  {
    "locality": "Ярославль",
    "district": "Дзержинский район",
    "admin_area": "Пашуково",
    "title": "Пашуково",
    "lat": 57.7058798,
    "lon": 39.7762297,
    "source": "photon"
  },
  {
    "locality": "Ярославль",
    "district": "Дзержинский район",
    "admin_area": "Пятовское",
    "title": "Пятовская",
    "lat": 57.6459615,
    "lon": 39.8044919,
    "source": "photon"
  },
  {
    "locality": "Ярославль",
    "district": "Дзержинский район",
    "admin_area": "Редковицыно",
    "title": "Редковицыно (ул. Батова)",
    "lat": 57.6962323,
    "lon": 39.7951542,
    "source": "photon"
  },
  {
    "locality": "Ярославль",
    "district": "Дзержинский район",
    "admin_area": "Скобыкино",
    "title": "Скобыкино",
    "lat": 57.7088933,
    "lon": 39.7863758,
    "source": "photon"
  },
  {
    "locality": "Ярославль",
    "district": "Дзержинский район",
    "admin_area": "Фрольцево",
    "title": "Фрольцево",
    "lat": 58.509046,
    "lon": 40.527752,
    "source": "photon"
  },
  {
    "locality": "Ярославль",
    "district": "Дзержинский район",
    "admin_area": "Павловский",
    "title": "Павловский парк (по требованию)",
    "lat": 57.6913196,
    "lon": 39.8057619,
    "source": "manual"
  }
]