[
  {
    "locality": "Ярославль",
    "district": "Кировский район",
    "admin_area": "Центр",
    "title": "Площадь Труда",
    "lat": 57.62667,
    "lon": 39.86528,
    "source": "manual"
  },
  {
    "locality": "Ярославль",
    "district": "Кировский район",
    "admin_area": "Центр",
    "title": "Проспект Толбухина",
    "lat": 57.6272,
    "lon": 39.864,
    "source": "manual"
  },
  {
    "locality": "Ярославль",
    "district": "Кировский район",
    "admin_area": "Центр",
    "title": "Площадь Волкова",
    "lat": 57.62594,
    "lon": 39.8824,
    "source": "manual"
  },
  {
    "locality": "Ярославль",
    "district": "Кировский район",
    "admin_area": "Центр",
    "title": "Знаменская башня",
    "lat": 57.62546,
    "lon": 39.885,
    "source": "manual"
  },
  {
    "locality": "Ярославль",
    "district": "Дзержинский район",
    "admin_area": "Брагино",
    "title": "Кинотеатр «Победа» (ТЦ «Космос»)",
    "lat": 57.67917,
    "lon": 39.79083,
    "source": "manual"
  },
  {
    "locality": "Ярославль",
    "district": "Дзержинский район",
    "admin_area": "Павловский",
    "title": "Павловский парк (по требованию)",
    "lat": 57.6913196,
    "lon": 39.8057619,
    "source": "manual"
  },
  {
    "locality": "Ярославль",
    "district": "Заволжский район",
    "admin_area": "Заволжский жилой район",
    "title": "Кинотеатр «Аврора»",
    "lat": 57.6978,
    "lon": 39.8243,
    "source": "manual"
  },
  {
    "locality": "Ярославль",
    "district": "Заволжский район",
    "admin_area": "Шевелюха",
    "title": "Зоопарк",
    "lat": 57.67676,
    "lon": 39.89743,
    "source": "manual"
  },
  {
    "locality": "Ярославль",
    "district": "Красноперекопский район",
    "admin_area": "Донская слобода",
    "title": "Московский вокзал",
    "lat": 57.60058,
    "lon": 39.87241,
    "source": "manual"
  },
  {
    "locality": "Ярославль",
    "district": "Красноперекопский район",
    "admin_area": "Нефтестрой",
    "title": "Арена-2000",
    "lat": 57.58928,
    "lon": 39.84877,
    "source": "manual"
  },
  {
    "locality": "Ярославль",
    "district": "Красноперекопский район",
    "admin_area": "Нефтестрой",
    "title": "Технический университет (ЯГТУ)",
    "lat": 57.5888,
    "lon": 39.8415,
    "source": "manual"
  },
  {
    "locality": "Ярославль",
    "district": "Красноперекопский район",
    "admin_area": "Новые Полянки",
    "title": "Улица Майорова",
    "lat": 57.5803,
    "lon": 39.8417,
    "source": "manual"
  },
  {
    "locality": "Ярославль",
    "district": "Ленинский район",
    "admin_area": "Весь Ленинский район",
    "title": "Юбилейная площадь",
    "lat": 57.63407,
    "lon": 39.85921,
    "source": "manual"
  },
  {
    "locality": "Ярославль",
    "district": "Ленинский район",
    "admin_area": "Весь Ленинский район",
    "title": "Областная онкологическая больница (Загородный сад)",
    "lat": 57.639966,
    "lon": 39.856873,
    "source": "manual"
  },
  {
    "locality": "Ярославль",
    "district": "Ленинский район",
    "admin_area": "Весь Ленинский район",
    "title": "Улица Белинского",
    "lat": 57.6424831,
    "lon": 39.8391274,
    "source": "manual"
  },
  {
    "locality": "Ярославль",
    "district": "Ленинский район",
    "admin_area": "Весь Ленинский район",
    "title": "Рынок «Пятёрка»",
    "lat": 57.638,
    "lon": 39.8345,
    "source": "manual"
  },
  {
    "locality": "Ярославль",
    "district": "Фрунзенский район",
    "admin_area": "Сокол / Сокол-2",
    "title": "ТЦ «Аксон»",
    "lat": 57.59211,
    "lon": 39.89607,
    "source": "manual"
  },
  {
    "locality": "Ярославль",
    "district": "Фрунзенский район",
    "admin_area": "Сокол / Сокол-2",
    "title": "Улица Чернопрудная",
    "lat": 57.593,
    "lon": 39.899,
    "source": "manual"
  },
  {
    "locality": "Ярославль",
    "district": "Фрунзенский район",
    "admin_area": "Дядьково",
    "title": "Аквапарк",
    "lat": 57.57154,
    "lon": 39.91681,
    "source": "manual"
  },
  {
    "locality": "Ярославль",
    "district": "Кировский район",
    "admin_area": "Центр",
    "title": "Улица Володарского",
    "lat": 57.6237395,
    "lon": 39.8624465,
    "source": "nominatim"
  },
  {
    "locality": "Ярославль",
    "district": "Кировский район",
    "admin_area": "Центр",
    "title": "Богоявленская площадь",
    "lat": 57.6225999,
    "lon": 39.8877709,
    "source": "nominatim"
  },
  {
    "locality": "Ярославль",
    "district": "Кировский район",
    "admin_area": "Центр",
    "title": "Торговый переулок",
    "lat": 57.624731,
    "lon": 39.8852431,
    "source": "nominatim"
  },
  {
    "locality": "Ярославль",
    "district": "Кировский район",
    "admin_area": "Центр",
    "title": "Красная площадь",
    "lat": 57.6319072,
    "lon": 39.8877186,
    "source": "nominatim"
  },
  {
    "locality": "Ярославль",
    "district": "Фрунзенский район",
    "admin_area": "Великий",
    "title": "Посёлок Великий",
    "lat": 57.5435396,
    "lon": 39.9590723,
    "source": "nominatim"
  },
  {
    "locality": "Ярославль",
    "district": "Фрунзенский район",
    "admin_area": "Дядьково",
    "title": "Улица Ильинская",
    "lat": 57.5803449,
    "lon": 39.9239721,
    "source": "nominatim"
  },
  {
    "locality": "Ярославль",
    "district": "Фрунзенский район",
    "admin_area": "Дядьково",
    "title": "Бульварная улица",
    "lat": 57.6358547,
    "lon": 39.7881404,
    "source": "nominatim"
  },
  {
    "locality": "Ярославль",
    "district": "Фрунзенский район",
    "admin_area": "Коровники",
    "title": "Коровники",
    "lat": 57.6101492,
    "lon": 39.9035469,
    "source": "nominatim"
  },
  {
    "locality": "Ярославль",
    "district": "Фрунзенский район",
    "admin_area": "Коровники",
    "title": "Мельничная улица",
    "lat": 57.6057408,
    "lon": 39.9006083,
    "source": "nominatim"
  },
  {
    "locality": "Ярославль",
    "district": "Фрунзенский район",
    "admin_area": "Кресты",
    "title": "Кресты",
    "lat": 57.5787592,
    "lon": 39.8491603,
    "source": "nominatim"
  },
  {
    "locality": "Ярославль",
    "district": "Фрунзенский район",
    "admin_area": "Кресты",
    "title": "Московский проспект",
    "lat": 57.5759918,
    "lon": 39.8448914,
    "source": "nominatim"
  },
  {
    "locality": "Ярославль",
    "district": "Фрунзенский район",
    "admin_area": "Кресты",
    "title": "Слепнёва",
    "lat": 57.579638,
    "lon": 39.880272,
    "source": "nominatim"
  },
  {
    "locality": "Ярославль",
    "district": "Фрунзенский район",
    "admin_area": "Липовая Гора",
    "title": "Радиозавод",
    "lat": 57.557053,
    "lon": 39.9489283,
    "source": "nominatim"
  },
  {
    "locality": "Ярославль",
    "district": "Фрунзенский район",
    "admin_area": "Липовая Гора",
    "title": "Улица Звёздная",
    "lat": 57.5601538,
    "lon": 39.9197246,
    "source": "nominatim"
  },
  {
    "locality": "Ярославль",
    "district": "Фрунзенский район",
    "admin_area": "Липовая Гора",
    "title": "Пивзавод",
    "lat": 57.5676176,
    "lon": 39.8959733,
    "source": "nominatim"
  },
  {
    "locality": "Ярославль",
    "district": "Фрунзенский район",
    "admin_area": "Мирный",
    "title": "Посёлок Мирный",
    "lat": 57.5909944,
    "lon": 39.9022883,
    "source": "nominatim"
  },
  {
    "locality": "Ярославль",
    "district": "Фрунзенский район",
    "admin_area": "Нефтебаза",
    "title": "Нефтебаза",
    "lat": 57.5669704,
    "lon": 39.9364027,
    "source": "nominatim"
  },
  {
    "locality": "Ярославль",
    "district": "Фрунзенский район",
    "admin_area": "Новосёлки",
    "title": "Индустриальный парк «Новосёлки»",
    "lat": 57.5607541,
    "lon": 39.9006986,
    "source": "nominatim"
  },
  {
    "locality": "Ярославль",
    "district": "Фрунзенский район",
    "admin_area": "Октябрьский",
    "title": "Октябрьский посёлок",
    "lat": 57.5547449,
    "lon": 39.9580415,
    "source": "nominatim"
  },
  {
    "locality": "Ярославль",
    "district": "Фрунзенский район",
    "admin_area": "Сокол / Сокол-2",
    "title": "Проспект Фрунзе",
    "lat": 57.5850872,
    "lon": 39.9068632,
    "source": "nominatim"
  },
  {
    "locality": "Ярославль",
    "district": "Фрунзенский район",
    "admin_area": "Суздалка",
    "title": "Улица Суздальская",
    "lat": 57.5707346,
    "lon": 39.876656,
    "source": "nominatim"
  },
  {
    "locality": "Ярославль",
    "district": "Фрунзенский район",
    "admin_area": "Суздалка",
    "title": "Больница №8",
    "lat": 57.5893331,
    "lon": 39.8770852,
    "source": "nominatim"
  },
  {
    "locality": "Ярославль",
    "district": "Фрунзенский район",
    "admin_area": "Суздалка",
    "title": "Доронина",
    "lat": 57.5740957,
    "lon": 39.8714508,
    "source": "nominatim"
  },
  {
    "locality": "Ярославль",
    "district": "Фрунзенский район",
    "admin_area": "Суздалка",
    "title": "Слепнёва",
    "lat": 57.579638,
    "lon": 39.880272,
    "source": "nominatim"
  },
  {
    "locality": "Ярославль",
    "district": "Фрунзенский район",
    "admin_area": "Тропино",
    "title": "Тропино",
    "lat": 57.6131212,
    "lon": 39.8917283,
    "source": "nominatim"
  },
  {
    "locality": "Ярославль",
    "district": "Фрунзенский район",
    "admin_area": "Тугова Гора",
    "title": "Тугова гора",
    "lat": 57.6039732,
    "lon": 39.8928512,
    "source": "nominatim"
  },
  {
    "locality": "Ярославль",
    "district": "Фрунзенский район",
    "admin_area": "Ямская Слобода",
    "title": "Ямская",
    "lat": 57.6066544,
    "lon": 39.8815285,
    "source": "nominatim"
  },
  {
    "locality": "Ярославль",
    "district": "Заволжский район",
    "admin_area": "Бакуниха",
    "title": "Бакуниха",
    "lat": 57.7635465,
    "lon": 39.798998,
    "source": "nominatim"
  },
  {
    "locality": "Ярославль",
    "district": "Заволжский район",
    "admin_area": "Борки",
    "title": "Борки",
    "lat": 57.6665254,
    "lon": 39.882708,
    "source": "nominatim"
  },
  {
    "locality": "Ярославль",
    "district": "Заволжский район",
    "admin_area": "Вакарево",
    "title": "Вакарево",
    "lat": 57.5807967,
    "lon": 39.9519092,
    "source": "nominatim"
  },
  {
    "locality": "Ярославль",
    "district": "Заволжский район",
    "admin_area": "Долматово",
    "title": "Долматово",
    "lat": 57.6753057,
    "lon": 39.87455,
    "source": "nominatim"
  },
  {
    "locality": "Ярославль",
    "district": "Заволжский район",
    "admin_area": "пос. Завода 50",
    "title": "Завод №50",
    "lat": 57.6612432,
    "lon": 39.9274156,
    "source": "nominatim"
  },
  {
    "locality": "Ярославль",
    "district": "Заволжский район",
    "admin_area": "пос. Завода 50",
    "title": "Машприбор",
    "lat": 57.6162082,
    "lon": 39.9648682,
    "source": "nominatim"
  },
  {
    "locality": "Ярославль",
    "district": "Заволжский район",
    "admin_area": "Заволжский жилой район",
    "title": "Проспект Машиностроителей",
    "lat": 57.648504,
    "lon": 39.951034,
    "source": "nominatim"
  },
  {
    "locality": "Ярославль",
    "district": "Заволжский район",
    "admin_area": "Заволжский жилой район",
    "title": "Улица Сахарова",
    "lat": 57.6371322,
    "lon": 39.9578526,
    "source": "nominatim"
  },
  {
    "locality": "Ярославль",
    "district": "Заволжский район",
    "admin_area": "Заостровка",
    "title": "Заостровка",
    "lat": 57.6514491,
    "lon": 39.8938375,
    "source": "nominatim"
  },
  {
    "locality": "Ярославль",
    "district": "Заволжский район",
    "admin_area": "Косая Гора",
    "title": "Косая Гора",
    "lat": 57.6822574,
    "lon": 39.8548785,
    "source": "nominatim"
  },
  {
    "locality": "Ярославль",
    "district": "Заволжский район",
    "admin_area": "Куксенки",
    "title": "Куксенки",
    "lat": 57.6812106,
    "lon": 39.8714164,
    "source": "nominatim"
  },
  {
    "locality": "Ярославль",
    "district": "Заволжский район",
    "admin_area": "Ляпино",
    "title": "Ляпино",
    "lat": 57.6037361,
    "lon": 40.0385719,
    "source": "nominatim"
  },
  {
    "locality": "Ярославль",
    "district": "Заволжский район",
    "admin_area": "Ляпино",
    "title": "Школа №50",
    "lat": 57.6445057,
    "lon": 39.9177056,
    "source": "nominatim"
  },
  {
    "locality": "Ярославль",
    "district": "Заволжский район",
    "admin_area": "пос. Маяковского",
    "title": "Посёлок Маяковского",
    "lat": 57.6322899,
    "lon": 39.9506049,
    "source": "nominatim"
  },
  {
    "locality": "Ярославль",
    "district": "Заволжский район",
    "admin_area": "пос. Маяковского",
    "title": "Улица Университетская",
    "lat": 57.6238385,
    "lon": 39.9332842,
    "source": "nominatim"
  },
  {
    "locality": "Ярославль",
    "district": "Заволжский район",
    "admin_area": "Медведево",
    "title": "Медведево",
    "lat": 57.7225599,
    "lon": 40.0054896,
    "source": "nominatim"
  },
  {
    "locality": "Ярославль",
    "district": "Заволжский район",
    "admin_area": "Мологино",
    "title": "Мологино",
    "lat": 57.7455588,
    "lon": 39.821818,
    "source": "nominatim"
  },
  {
    "locality": "Ярославль",
    "district": "Заволжский район",
    "admin_area": "Нижний пос.",
    "title": "Нижний посёлок",
    "lat": 57.6091741,
    "lon": 39.980375,
    "source": "nominatim"
  },
  {
    "locality": "Ярославль",
    "district": "Заволжский район",
    "admin_area": "Нижний пос.",
    "title": "Улица Розы Люксембург",
    "lat": 57.6402136,
    "lon": 39.8348699,
    "source": "nominatim"
  },
  {
    "locality": "Ярославль",
    "district": "Заволжский район",
    "admin_area": "Очапки",
    "title": "Очапки",
    "lat": 57.7696367,
    "lon": 39.7899669,
    "source": "nominatim"
  },
  {
    "locality": "Ярославль",
    "district": "Заволжский район",
    "admin_area": "Парково",
    "title": "Парково",
    "lat": 57.603774,
    "lon": 39.9340833,
    "source": "nominatim"
  },
  {
    "locality": "Ярославль",
    "district": "Заволжский район",
    "admin_area": "Парково",
    "title": "Озеро",
    "lat": 57.6180755,
    "lon": 40.0144925,
    "source": "nominatim"
  },
  {
    "locality": "Ярославль",
    "district": "Заволжский район",
    "admin_area": "Першино",
    "title": "Першино",
    "lat": 57.695778,
    "lon": 39.701424,
    "source": "nominatim"
  },
  {
    "locality": "Ярославль",
    "district": "Заволжский район",
    "admin_area": "Резинотехника",
    "title": "Улица Спартаковская",
    "lat": 57.7215256,
    "lon": 39.8240835,
    "source": "nominatim"
  },
  {
    "locality": "Ярославль",
    "district": "Заволжский район",
    "admin_area": "Резинотехника",
    "title": "Улица Панфилова",
    "lat": 57.7202078,
    "lon": 39.8331038,
    "source": "nominatim"
  },
  {
    "locality": "Ярославль",
    "district": "Заволжский район",
    "admin_area": "Сергейцево",
    "title": "Сергейцево",
    "lat": 57.7410278,
    "lon": 39.8255169,
    "source": "nominatim"
  },
  {
    "locality": "Ярославль",
    "district": "Заволжский район",
    "admin_area": "Смоленское",
    "title": "Смоленское",
    "lat": 57.6598751,
    "lon": 39.9004279,
    "source": "nominatim"
  },
  {
    "locality": "Ярославль",
    "district": "Заволжский район",
    "admin_area": "Средний пос.",
    "title": "Средний посёлок",
    "lat": 57.6064398,
    "lon": 39.9503716,
    "source": "nominatim"
  },
  {
    "locality": "Ярославль",
    "district": "Заволжский район",
    "admin_area": "Средний пос.",
    "title": "Клубная улица",
    "lat": 57.6079723,
    "lon": 39.9658342,
    "source": "nominatim"
  },
  {
    "locality": "Ярославль",
    "district": "Заволжский район",
    "admin_area": "Тверицы",
    "title": "Тверицы",
    "lat": 57.6301886,
    "lon": 39.9134112,
    "source": "nominatim"
  },
  {
    "locality": "Ярославль",
    "district": "Заволжский район",
    "admin_area": "Тверицы",
    "title": "Улица Стопани",
    "lat": 57.6177488,
    "lon": 39.9258195,
    "source": "nominatim"
  },
  {
    "locality": "Ярославль",
    "district": "Заволжский район",
    "admin_area": "Тверицы",
    "title": "Тверицкая набережная",
    "lat": 57.6396445,
    "lon": 39.9012676,
    "source": "nominatim"
  },
  {
    "locality": "Ярославль",
    "district": "Заволжский район",
    "admin_area": "Толга",
    "title": "Толгский монастырь",
    "lat": 57.7002583,
    "lon": 39.8312685,
    "source": "nominatim"
  },
  {
    "locality": "Ярославль",
    "district": "Заволжский район",
    "admin_area": "Толга",
    "title": "Посёлок Толга",
    "lat": 57.7022661,
    "lon": 39.8219821,
    "source": "nominatim"
  },
  {
    "locality": "Ярославль",
    "district": "Заволжский район",
    "admin_area": "Трофимково",
    "title": "Трофимково",
    "lat": 57.6916444,
    "lon": 39.8393878,
    "source": "nominatim"
  },
  {
    "locality": "Ярославль",
    "district": "Заволжский район",
    "admin_area": "Филино",
    "title": "Станция Филино",
    "lat": 57.6579409,
    "lon": 39.9283959,
    "source": "nominatim"
  },
  {
    "locality": "Ярославль",
    "district": "Заволжский район",
    "admin_area": "Шевелюха",
    "title": "Улица Шевелюха",
    "lat": 57.6685726,
    "lon": 39.908573,
    "source": "nominatim"
  },
  {
    "locality": "Ярославль",
    "district": "Заволжский район",
    "admin_area": "Яковлевское",
    "title": "Областная больница",
    "lat": 57.6578164,
    "lon": 39.9676035,
    "source": "nominatim"
  },
  {
    "locality": "Ярославль",
    "district": "Заволжский район",
    "admin_area": "Яковлевское",
    "title": "Яковлевская",
    "lat": 57.660533,
    "lon": 39.9625801,
    "source": "nominatim"
  },
  {
    "locality": "Ярославль",
    "district": "Красноперекопский район",
    "admin_area": "Донская слобода",
    "title": "Улица Ухтомского",
    "lat": 57.6226022,
    "lon": 39.8436187,
    "source": "nominatim"
  },
  {
    "locality": "Ярославль",
    "district": "Красноперекопский район",
    "admin_area": "Нефтестрой",
    "title": "Больница НПЗ",
    "lat": 57.5886735,
    "lon": 39.8449892,
    "source": "nominatim"
  },
  {
    "locality": "Ярославль",
    "district": "Красноперекопский район",
    "admin_area": "Нефтестрой",
    "title": "Институт",
    "lat": 57.6374915,
    "lon": 39.8572416,
    "source": "nominatim"
  },
  {
    "locality": "Ярославль",
    "district": "Красноперекопский район",
    "admin_area": "Починки",
    "title": "Починки",
    "lat": 57.6116636,
    "lon": 39.8140973,
    "source": "nominatim"
  },
  {
    "locality": "Ярославль",
    "district": "Красноперекопский район",
    "admin_area": "Починки",
    "title": "Улица Гагарина",
    "lat": 57.5825529,
    "lon": 39.8374648,
    "source": "nominatim"
  },
  {
    "locality": "Ярославль",
    "district": "Красноперекопский район",
    "admin_area": "Толчково",
    "title": "Комсомольская площадь",
    "lat": 57.6083921,
    "lon": 39.8359718,
    "source": "nominatim"
  },
  {
    "locality": "Ярославль",
    "district": "Красноперекопский район",
    "admin_area": "Толчково",
    "title": "Выемка",
    "lat": 57.6046231,
    "lon": 39.8780481,
    "source": "nominatim"
  },
  {
    "locality": "Ярославль",
    "district": "Красноперекопский район",
    "admin_area": "Толчково",
    "title": "Улица Карабулина",
    "lat": 57.604417,
    "lon": 39.8617584,
    "source": "nominatim"
  },
  {
    "locality": "Ярославль",
    "district": "Красноперекопский район",
    "admin_area": "Посёлки (малые)",
    "title": "Улица Бутырская",
    "lat": 57.6037243,
    "lon": 39.8570124,
    "source": "nominatim"
  },
  {
    "locality": "Ярославль",
    "district": "Красноперекопский район",
    "admin_area": "Посёлки (малые)",
    "title": "Забелицы",
    "lat": 57.5989495,
    "lon": 39.8249442,
    "source": "nominatim"
  },
  {
    "locality": "Ярославль",
    "district": "Красноперекопский район",
    "admin_area": "Посёлки (малые)",
    "title": "Новодуховская",
    "lat": 57.6012914,
    "lon": 39.8182107,
    "source": "nominatim"
  },
  {
    "locality": "Ярославль",
    "district": "Ленинский район",
    "admin_area": "Весь Ленинский район",
    "title": "Проспект Ленина",
    "lat": 57.6319086,
    "lon": 39.855585,
    "source": "nominatim"
  },
  {
    "locality": "Ярославль",
    "district": "Ленинский район",
    "admin_area": "Весь Ленинский район",
    "title": "Улица Чкалова",
    "lat": 57.637765,
    "lon": 39.8314249,
    "source": "nominatim"
  },
  {
    "locality": "Ярославль",
    "district": "Ленинский район",
    "admin_area": "Весь Ленинский район",
    "title": "Улица Юности",
    "lat": 57.6383384,
    "lon": 39.8158042,
    "source": "nominatim"
  },
  {
    "locality": "Ярославль",
    "district": "Дзержинский район",
    "admin_area": "Брагино",
    "title": "Улица Урицкого",
    "lat": 57.688065,
    "lon": 39.8067425,
    "source": "nominatim"
  },
  {
    "locality": "Ярославль",
    "district": "Дзержинский район",
    "admin_area": "Брагино",
    "title": "Проспект Дзержинского",
    "lat": 57.6871055,
    "lon": 39.7864364,
    "source": "nominatim"
  },
  {
    "locality": "Ярославль",
    "district": "Дзержинский район",
    "admin_area": "2-е Брагино",
    "title": "Улица Панина",
    "lat": 57.6855699,
    "lon": 39.7712566,
    "source": "nominatim"
  },
  {
    "locality": "Ярославль",
    "district": "Дзержинский район",
    "admin_area": "2-е Брагино",
    "title": "Улица Волгоградская",
    "lat": 57.6926085,
    "lon": 39.7567467,
    "source": "nominatim"
  },
  {
    "locality": "Ярославль",
    "district": "Дзержинский район",
    "admin_area": "2-е Брагино",
    "title": "15-й микрорайон",
    "lat": 57.7040434,
    "lon": 39.7636032,
    "source": "nominatim"
  },
  {
    "locality": "Ярославль",
    "district": "Дзержинский район",
    "admin_area": "Иваньково",
    "title": "Иваньково",
    "lat": 57.6849783,
    "lon": 39.8265152,
    "source": "nominatim"
  },
  {
    "locality": "Ярославль",
    "district": "Дзержинский район",
    "admin_area": "Мостострой",
    "title": "Мостоотряд",
    "lat": 57.6975827,
    "lon": 39.7970793,
    "source": "nominatim"
  },
  {
    "locality": "Ярославль",
    "district": "Дзержинский район",
    "admin_area": "Мостострой",
    "title": "Улица Старое Долматово",
    "lat": 57.6752196,
    "lon": 39.8672716,
    "source": "nominatim"
  },
  {
    "locality": "Ярославль",
    "district": "Дзержинский район",
    "admin_area": "Норское",
    "title": "Фабрика «Красный Перевал»",
    "lat": 57.7151416,
    "lon": 39.7822429,
    "source": "nominatim"
  },
  {
    "locality": "Ярославль",
    "district": "Дзержинский район",
    "admin_area": "Норское",
    "title": "Улица Керамическая",
    "lat": 57.7304593,
    "lon": 39.764957,
    "source": "nominatim"
  },
  {
    "locality": "Ярославль",
    "district": "Дзержинский район",
    "admin_area": "Осташинское",
    "title": "Осташинское кладбище",
    "lat": 57.6557871,
    "lon": 39.789523,
    "source": "nominatim"
  },
  {
    "locality": "Ярославль",
    "district": "Дзержинский район",
    "admin_area": "Осташинское",
    "title": "Улица Осташинская",
    "lat": 57.6584688,
    "lon": 39.7798017,
    "source": "nominatim"
  },
  {
    "locality": "Ярославль",
    "district": "Дзержинский район",
    "admin_area": "Пашуково",
    "title": "Пашуково",
    "lat": 57.7058798,
    "lon": 39.7762297,
    "source": "nominatim"
  },
  {
    "locality": "Ярославль",
    "district": "Дзержинский район",
    "admin_area": "Пятовское",
    "title": "Пятовская",
    "lat": 57.644081,
    "lon": 39.8022605,
    "source": "nominatim"
  },
  {
    "locality": "Ярославль",
    "district": "Дзержинский район",
    "admin_area": "Скобыкино",
    "title": "Скобыкино",
    "lat": 57.701624,
    "lon": 39.7969227,
    "source": "nominatim"
  }
]